[
  {
    "id": 1,
    "name": "John F Kennedy International Airport",
    "city": "New York",
    "country": "United States",
    "iata": "JFK",
    "icao": "KJFK",
    "latitude": 40.63980103,
    "longitude": -73.77890015,
    "altitude": 13,
    "timezone": -5,
    "dst": "A"
  },
  {
    "id": 2,
    "name": "Los Angeles International Airport",
    "city": "Los Angeles",
    "country": "United States",
    "iata": "LAX",
    "icao": "KLAX",
    "latitude": 33.94250107,
    "longitude": -118.4079971,
    "altitude": 125,
    "timezone": -8,
    "dst": "A"
  },
  {
    "id": 3,
    "name": "Heathrow Airport",
    "city": "London",
    "country": "United Kingdom",
    "iata": "LHR",
    "icao": "EGLL",
    "latitude": 51.4706,
    "longitude": -0.461941,
    "altitude": 83,
    "timezone": 0,
    "dst": "E"
  },
  {
    "id": 4,
    "name": "Gatwick Airport",
    "city": "London",
    "country": "United Kingdom",
    "iata": "LGW",
    "icao": "EGKK",
    "latitude": 51.148102,
    "longitude": -0.190278,
    "altitude": 202,
    "timezone": 0,
    "dst": "E"
  },
  {
    "id": 5,
    "name": "Charles de Gaulle Airport",
    "city": "Paris",
    "country": "France",
    "iata": "CDG",
    "icao": "LFPG",
    "latitude": 49.012798,
    "longitude": 2.55,
    "altitude": 392,
    "timezone": 1,
    "dst": "E"
  },
  {
    "id": 6,
    "name": "Orly Airport",
    "city": "Paris",
    "country": "France",
    "iata": "ORY",
    "icao": "LFPO",
    "latitude": 48.7233333,
    "longitude": 2.3794444,
    "altitude": 291,
    "timezone": 1,
    "dst": "E"
  },
  {
    "id": 7,
    "name": "Narita International Airport",
    "city": "Tokyo",
    "country": "Japan",
    "iata": "NRT",
    "icao": "RJAA",
    "latitude": 35.7647,
    "longitude": 140.386002,
    "altitude": 141,
    "timezone": 9,
    "dst": "U"
  },
  {
    "id": 8,
    "name": "Haneda Airport",
    "city": "Tokyo",
    "country": "Japan",
    "iata": "HND",
    "icao": "RJTT",
    "latitude": 35.5493,
    "longitude": 139.779999,
    "altitude": 35,
    "timezone": 9,
    "dst": "U"
  },
  {
    "id": 9,
    "name": "Dubai International Airport",
    "city": "Dubai",
    "country": "United Arab Emirates",
    "iata": "DXB",
    "icao": "OMDB",
    "latitude": 25.2527999878,
    "longitude": 55.3643989563,
    "altitude": 62,
    "timezone": 4,
    "dst": "U"
  },
  {
    "id": 10,
    "name": "Singapore Changi Airport",
    "city": "Singapore",
    "country": "Singapore",
    "iata": "SIN",
    "icao": "WSSS",
    "latitude": 1.35019,
    "longitude": 103.994003,
    "altitude": 22,
    "timezone": 8,
    "dst": "U"
  },
  {
    "id": 11,
    "name": "Frankfurt Airport",
    "city": "Frankfurt",
    "country": "Germany",
    "iata": "FRA",
    "icao": "EDDF",
    "latitude": 50.033333,
    "longitude": 8.570556,
    "altitude": 364,
    "timezone": 1,
    "dst": "E"
  },
  {
    "id": 12,
    "name": "Amsterdam Airport Schiphol",
    "city": "Amsterdam",
    "country": "Netherlands",
    "iata": "AMS",
    "icao": "EHAM",
    "latitude": 52.308601,
    "longitude": 4.76389,
    "altitude": -11,
    "timezone": 1,
    "dst": "E"
  },
  {
    "id": 13,
    "name": "Sydney Kingsford Smith Airport",
    "city": "Sydney",
    "country": "Australia",
    "iata": "SYD",
    "icao": "YSSY",
    "latitude": -33.946609,
    "longitude": 151.177002,
    "altitude": 21,
    "timezone": 10,
    "dst": "O"
  },
  {
    "id": 14,
    "name": "Toronto Pearson International Airport",
    "city": "Toronto",
    "country": "Canada",
    "iata": "YYZ",
    "icao": "CYYZ",
    "latitude": 43.6777,
    "longitude": -79.6248,
    "altitude": 569,
    "timezone": -5,
    "dst": "A"
  },
  {
    "id": 15,
    "name": "O'Hare International Airport",
    "city": "Chicago",
    "country": "United States",
    "iata": "ORD",
    "icao": "KORD",
    "latitude": 41.9786,
    "longitude": -87.9048,
    "altitude": 672,
    "timezone": -6,
    "dst": "A"
  },
  {
    "id": 16,
    "name": "Miami International Airport",
    "city": "Miami",
    "country": "United States",
    "iata": "MIA",
    "icao": "KMIA",
    "latitude": 25.79319954,
    "longitude": -80.29060364,
    "altitude": 8,
    "timezone": -5,
    "dst": "A"
  },
  {
    "id": 17,
    "name": "San Francisco International Airport",
    "city": "San Francisco",
    "country": "United States",
    "iata": "SFO",
    "icao": "KSFO",
    "latitude": 37.621311,
    "longitude": -122.378998,
    "altitude": 13,
    "timezone": -8,
    "dst": "A"
  },
  {
    "id": 18,
    "name": "Incheon International Airport",
    "city": "Seoul",
    "country": "South Korea",
    "iata": "ICN",
    "icao": "RKSI",
    "latitude": 37.469101,
    "longitude": 126.451004,
    "altitude": 23,
    "timezone": 9,
    "dst": "U"
  },
  {
    "id": 19,
    "name": "Suvarnabhumi Airport",
    "city": "Bangkok",
    "country": "Thailand",
    "iata": "BKK",
    "icao": "VTBS",
    "latitude": 13.681099891662598,
    "longitude": 100.74700164794922,
    "altitude": 5,
    "timezone": 7,
    "dst": "U"
  },
  {
    "id": 20,
    "name": "Chhatrapati Shivaji Maharaj International Airport",
    "city": "Mumbai",
    "country": "India",
    "iata": "BOM",
    "icao": "VABB",
    "latitude": 19.0886993408,
    "longitude": 72.8678970337,
    "altitude": 39,
    "timezone": 5.5,
    "dst": "N"
  },
  {
    "id": 21,
    "name": "Indira Gandhi International Airport",
    "city": "New Delhi",
    "country": "India",
    "iata": "DEL",
    "icao": "VIDP",
    "latitude": 28.5665,
    "longitude": 77.103104,
    "altitude": 777,
    "timezone": 5.5,
    "dst": "N"
  },
  {
    "id": 22,
    "name": "Kuala Lumpur International Airport",
    "city": "Kuala Lumpur",
    "country": "Malaysia",
    "iata": "KUL",
    "icao": "WMKK",
    "latitude": 2.745579957962036,
    "longitude": 101.70999908447266,
    "altitude": 69,
    "timezone": 8,
    "dst": "U"
  },
  {
    "id": 23,
    "name": "Zurich Airport",
    "city": "Zurich",
    "country": "Switzerland",
    "iata": "ZUR",
    "icao": "LSZH",
    "latitude": 47.464699,
    "longitude": 8.54917,
    "altitude": 1416,
    "timezone": 1,
    "dst": "E"
  },
  {
    "id": 24,
    "name": "Leonardo da Vinci International Airport",
    "city": "Rome",
    "country": "Italy",
    "iata": "FCO",
    "icao": "LIRF",
    "latitude": 41.8002778,
    "longitude": 12.2388889,
    "altitude": 13,
    "timezone": 1,
    "dst": "E"
  },
  {
    "id": 25,
    "name": "Adolfo Suárez Madrid–Barajas Airport",
    "city": "Madrid",
    "country": "Spain",
    "iata": "MAD",
    "icao": "LEMD",
    "latitude": 40.471926,
    "longitude": -3.56264,
    "altitude": 2001,
    "timezone": 1,
    "dst": "E"
  },
  {
    "id": 26,
    "name": "Barcelona-El Prat Airport",
    "city": "Barcelona",
    "country": "Spain",
    "iata": "BCN",
    "icao": "LEBL",
    "latitude": 41.2971,
    "longitude": 2.07846,
    "altitude": 12,
    "timezone": 1,
    "dst": "E"
  },
  {
    "id": 27,
    "name": "São Paulo/Guarulhos International Airport",
    "city": "São Paulo",
    "country": "Brazil",
    "iata": "GRU",
    "icao": "SBGR",
    "latitude": -23.435556,
    "longitude": -46.473056,
    "altitude": 2459,
    "timezone": -3,
    "dst": "S"
  },
  {
    "id": 28,
    "name": "Rio de Janeiro/Galeão International Airport",
    "city": "Rio de Janeiro",
    "country": "Brazil",
    "iata": "GIG",
    "icao": "SBGL",
    "latitude": -22.8099994659,
    "longitude": -43.2505569458,
    "altitude": 28,
    "timezone": -3,
    "dst": "S"
  },
  {
    "id": 29,
    "name": "Vancouver International Airport",
    "city": "Vancouver",
    "country": "Canada",
    "iata": "YVR",
    "icao": "CYVR",
    "latitude": 49.193901062,
    "longitude": -123.184998989,
    "altitude": 14,
    "timezone": -8,
    "dst": "A"
  },
  {
    "id": 30,
    "name": "Melbourne Airport",
    "city": "Melbourne",
    "country": "Australia",
    "iata": "MEL",
    "icao": "YMML",
    "latitude": -37.673302,
    "longitude": 144.843002,
    "altitude": 434,
    "timezone": 10,
    "dst": "O"
  },
  {
    "id": 31,
    "name": "Dallas/Fort Worth International Airport",
    "city": "Dallas",
    "country": "United States",
    "iata": "DFW",
    "icao": "KDFW",
    "latitude": 32.896801,
    "longitude": -97.038002,
    "altitude": 607,
    "timezone": -6,
    "dst": "A"
  },
  {
    "id": 32,
    "name": "Seattle-Tacoma International Airport",
    "city": "Seattle",
    "country": "United States",
    "iata": "SEA",
    "icao": "KSEA",
    "latitude": 47.449001,
    "longitude": -122.308998,
    "altitude": 131,
    "timezone": -8,
    "dst": "A"
  },
  {
    "id": 33,
    "name": "McCarran International Airport",
    "city": "Las Vegas",
    "country": "United States",
    "iata": "LAS",
    "icao": "KLAS",
    "latitude": 36.080101013183594,
    "longitude": -115.15199661254883,
    "altitude": 2181,
    "timezone": -8,
    "dst": "A"
  },
  {
    "id": 34,
    "name": "Abu Dhabi International Airport",
    "city": "Abu Dhabi",
    "country": "United Arab Emirates",
    "iata": "AUH",
    "icao": "OMAA",
    "latitude": 24.433000564575195,
    "longitude": 54.65110015869141,
    "altitude": 88,
    "timezone": 4,
    "dst": "U"
  },
  {
    "id": 35,
    "name": "Kempegowda International Airport",
    "city": "Bangalore",
    "country": "India",
    "iata": "BLR",
    "icao": "VOBL",
    "latitude": 13.1979,
    "longitude": 77.706299,
    "altitude": 3000,
    "timezone": 5.5,
    "dst": "N"
  },
  {
    "id": 36,
    "name": "Jinnah International Airport",
    "city": "Karachi",
    "country": "Pakistan",
    "iata": "KHI",
    "icao": "OPKC",
    "latitude": 24.9065,
    "longitude": 67.1608,
    "altitude": 100,
    "timezone": 5,
    "dst": "N"
  },
  {
    "id": 37,
    "name": "Allama Iqbal International Airport",
    "city": "Lahore",
    "country": "Pakistan",
    "iata": "LHE",
    "icao": "OPLA",
    "latitude": 31.5216,
    "longitude": 74.4036,
    "altitude": 712,
    "timezone": 5,
    "dst": "N"
  },
  {
    "id": 38,
    "name": "Sialkot International Airport",
    "city": "Sialkot",
    "country": "Pakistan",
    "iata": "SKT",
    "icao": "OPST",
    "latitude": 32.5356,
    "longitude": 74.3639,
    "altitude": 837,
    "timezone": 5,
    "dst": "N"
  },
  {
    "id": 39,
    "name": "Islamabad International Airport",
    "city": "Islamabad",
    "country": "Pakistan",
    "iata": "ISB",
    "icao": "OPIS",
    "latitude": 33.5607,
    "longitude": 72.8516,
    "altitude": 1688,
    "timezone": 5,
    "dst": "N"
  },
  {
    "id": 40,
    "name": "Dubai International Airport",
    "city": "Dubai",
    "country": "United Arab Emirates",
    "iata": "DXB",
    "icao": "OMDB",
    "latitude": 25.2527999878,
    "longitude": 55.3643989563,
    "altitude": 62,
    "timezone": 4,
    "dst": "U"
  },
  {
    "id": 41,
    "name": "Al Maktoum International Airport",
    "city": "Dubai",
    "country": "United Arab Emirates",
    "iata": "DWC",
    "icao": "OMDW",
    "latitude": 24.896389,
    "longitude": 55.161389,
    "altitude": 114,
    "timezone": 4,
    "dst": "U"
  }
]


